,Data Type,UTC Time,Latitude,North/South,Longitude,East/West,Quality,Satellites Num,HDOP,Altitude,Alit Unit,Geoid Height,Geo Unit,Comm Time,Check Sum,x,y
2005-09-25 23:41:12,$GPGGA,234112,3926.5031,N,11946.1982,W,2,12,0.8,1380.2,M,-22.0,M,,"*4A
",1943714.0237335805,-256905.46600305964
2005-09-25 23:41:14,$GPGGA,234114,3926.5031,N,11946.1982,W,2,12,0.9,1380.0,M,-22.0,M,,"*4F
",1943714.0237335805,-256905.46600305964
2005-09-25 23:41:16,$GPGGA,234116,3926.5031,N,11946.1982,W,2,12,0.9,1379.7,M,-22.0,M,,"*4C
",1943714.0237335805,-256905.46600305964
2005-09-25 23:41:18,$GPGGA,234118,3926.5031,N,11946.1982,W,2,12,0.9,1379.6,M,-22.0,M,,"*43
",1943714.0237335805,-256905.46600305964
2005-09-25 23:41:20,$GPGGA,234120,3926.5031,N,11946.1982,W,2,12,0.9,1379.7,M,-22.0,M,,"*49
",1943714.0237335805,-256905.46600305964
2005-09-25 23:41:22,$GPGGA,234122,3926.5031,N,11946.1982,W,2,12,0.9,1379.6,M,-22.0,M,,"*4A
",1943714.0237335805,-256905.46600305964
2005-09-25 23:41:24,$GPGGA,234124,3926.5031,N,11946.1982,W,2,12,0.9,1379.5,M,-22.0,M,,"*4F
",1943714.0237335805,-256905.46600305964
2005-09-25 23:41:26,$GPGGA,234126,3926.5031,N,11946.1983,W,2,12,0.9,1379.5,M,-22.0,M,,"*4C
",1943713.87848896,-256905.50420083888
2005-09-25 23:41:28,$GPGGA,234128,3926.5031,N,11946.1983,W,2,12,0.9,1379.7,M,-22.0,M,,"*40
",1943713.87848896,-256905.50420083888
2005-09-25 23:41:30,$GPGGA,234130,3926.5031,N,11946.1983,W,2,12,0.8,1380.0,M,-22.0,M,,"*49
",1943713.87848896,-256905.50420083888
2005-09-25 23:41:32,$GPGGA,234132,3926.5031,N,11946.1983,W,2,12,0.8,1380.0,M,-22.0,M,,"*4B
",1943713.87848896,-256905.50420083888
2005-09-25 23:41:34,$GPGGA,234134,3926.5031,N,11946.1983,W,2,12,0.8,1380.3,M,-22.0,M,,"*4E
",1943713.87848896,-256905.50420083888
2005-09-25 23:41:36,$GPGGA,234136,3926.5031,N,11946.1983,W,2,12,0.8,1380.4,M,-22.0,M,,"*4B
",1943713.87848896,-256905.50420083888
2005-09-25 23:41:38,$GPGGA,234138,3926.5031,N,11946.1983,W,2,12,0.8,1380.5,M,-22.0,M,,"*44
",1943713.87848896,-256905.50420083888
2005-09-25 23:41:40,$GPGGA,234140,3926.5031,N,11946.1983,W,2,12,0.9,1380.4,M,-22.0,M,,"*4B
",1943713.87848896,-256905.50420083888
2005-09-25 23:41:42,$GPGGA,234142,3926.5031,N,11946.1984,W,2,12,0.9,1380.2,M,-22.0,M,,"*48
",1943713.7332443413,-256905.54239861434
2005-09-25 23:41:44,$GPGGA,234144,3926.5030,N,11946.1984,W,2,12,0.9,1379.8,M,-22.0,M,,"*43
",1943713.7825079288,-256905.72971821754
2005-09-25 23:41:46,$GPGGA,234146,3926.5030,N,11946.1984,W,2,12,0.9,1379.8,M,-22.0,M,,"*41
",1943713.7825079288,-256905.72971821754
2005-09-25 23:41:48,$GPGGA,234148,3926.5030,N,11946.1984,W,2,12,0.9,1379.4,M,-22.0,M,,"*43
",1943713.7825079288,-256905.72971821754
2005-09-25 23:41:50,$GPGGA,234150,3926.5030,N,11946.1984,W,2,12,0.9,1379.8,M,-22.0,M,,"*46
",1943713.7825079288,-256905.72971821754
2005-09-25 23:41:52,$GPGGA,234152,3926.5030,N,11946.1984,W,2,12,0.9,1380.5,M,-22.0,M,,"*4F
",1943713.7825079288,-256905.72971821754
2005-09-25 23:41:54,$GPGGA,234154,3926.5030,N,11946.1984,W,2,12,0.8,1381.0,M,-22.0,M,,"*4C
",1943713.7825079288,-256905.72971821754
2005-09-25 23:41:56,$GPGGA,234156,3926.5030,N,11946.1984,W,2,12,0.9,1381.4,M,-22.0,M,,"*4B
",1943713.7825079288,-256905.72971821754
2005-09-25 23:41:58,$GPGGA,234158,3926.5030,N,11946.1984,W,2,12,0.9,1381.3,M,-22.0,M,,"*42
",1943713.7825079288,-256905.72971821754
2005-09-25 23:42:00,$GPGGA,234200,3926.5030,N,11946.1984,W,2,12,0.9,1381.1,M,-22.0,M,,"*4E
",1943713.7825079288,-256905.72971821754
2005-09-25 23:42:02,$GPGGA,234202,3926.5030,N,11946.1984,W,2,12,0.9,1381.0,M,-22.0,M,,"*4D
",1943713.7825079288,-256905.72971821754
2005-09-25 23:42:04,$GPGGA,234204,3926.5030,N,11946.1984,W,2,12,0.9,1380.8,M,-22.0,M,,"*42
",1943713.7825079288,-256905.72971821754
2005-09-25 23:42:06,$GPGGA,234206,3926.5029,N,11946.1985,W,2,11,0.9,1380.5,M,-22.0,M,,"*47
",1943713.686526881,-256905.95523559724
2005-09-25 23:42:08,$GPGGA,234208,3926.5029,N,11946.1985,W,2,12,0.9,1380.1,M,-22.0,M,,"*4E
",1943713.686526881,-256905.95523559724
2005-09-25 23:42:10,$GPGGA,234210,3926.5029,N,11946.1985,W,2,12,0.9,1379.6,M,-22.0,M,,"*46
",1943713.686526881,-256905.95523559724
2005-09-25 23:42:12,$GPGGA,234212,3926.5029,N,11946.1985,W,2,12,0.9,1379.3,M,-22.0,M,,"*41
",1943713.686526881,-256905.95523559724
2005-09-25 23:42:14,$GPGGA,234214,3926.5029,N,11946.1985,W,2,12,0.9,1379.0,M,-22.0,M,,"*44
",1943713.686526881,-256905.95523559724
2005-09-25 23:42:16,$GPGGA,234216,3926.5029,N,11946.1985,W,2,12,0.9,1379.0,M,-22.0,M,,"*46
",1943713.686526881,-256905.95523559724
2005-09-25 23:42:18,$GPGGA,234218,3926.5029,N,11946.1985,W,2,12,0.9,1378.6,M,-22.0,M,,"*4F
",1943713.686526881,-256905.95523559724
2005-09-25 23:42:20,$GPGGA,234220,3926.5029,N,11946.1985,W,2,12,0.9,1378.4,M,-22.0,M,,"*46
",1943713.686526881,-256905.95523559724
2005-09-25 23:42:22,$GPGGA,234222,3926.5029,N,11946.1985,W,2,12,1.0,1378.3,M,-22.0,M,,"*4B
",1943713.686526881,-256905.95523559724
2005-09-25 23:42:24,$GPGGA,234224,3926.5029,N,11946.1985,W,2,12,0.9,1378.2,M,-22.0,M,,"*44
",1943713.686526881,-256905.95523559724
2005-09-25 23:42:26,$GPGGA,234226,3926.5029,N,11946.1985,W,2,12,0.9,1378.4,M,-22.0,M,,"*40
",1943713.686526881,-256905.95523559724
2005-09-25 23:42:28,$GPGGA,234228,3926.5029,N,11946.1985,W,2,12,0.9,1378.9,M,-22.0,M,,"*43
",1943713.686526881,-256905.95523559724
2005-09-25 23:42:30,$GPGGA,234230,3926.5029,N,11946.1985,W,2,12,0.8,1379.3,M,-22.0,M,,"*40
",1943713.686526881,-256905.95523559724
2005-09-25 23:42:32,$GPGGA,234232,3926.5029,N,11946.1985,W,2,12,0.8,1379.6,M,-22.0,M,,"*47
",1943713.686526881,-256905.95523559724
2005-09-25 23:42:34,$GPGGA,234234,3926.5029,N,11946.1985,W,2,12,0.8,1379.7,M,-22.0,M,,"*40
",1943713.686526881,-256905.95523559724
2005-09-25 23:42:36,$GPGGA,234236,3926.5029,N,11946.1985,W,2,12,0.8,1379.9,M,-22.0,M,,"*4C
",1943713.686526881,-256905.95523559724
2005-09-25 23:42:38,$GPGGA,234238,3926.5029,N,11946.1985,W,2,12,0.8,1380.0,M,-22.0,M,,"*4D
",1943713.686526881,-256905.95523559724
2005-09-25 23:42:40,$GPGGA,234240,3926.5029,N,11946.1984,W,2,12,0.8,1380.1,M,-22.0,M,,"*42
",1943713.831771514,-256905.91703782382
2005-09-25 23:42:42,$GPGGA,234242,3926.5029,N,11946.1984,W,2,12,0.8,1380.5,M,-22.0,M,,"*44
",1943713.831771514,-256905.91703782382
2005-09-25 23:42:44,$GPGGA,234244,3926.5029,N,11946.1984,W,2,12,0.8,1380.9,M,-22.0,M,,"*4E
",1943713.831771514,-256905.91703782382
2005-09-25 23:42:46,$GPGGA,234246,3926.5029,N,11946.1984,W,2,12,0.8,1381.4,M,-22.0,M,,"*40
",1943713.831771514,-256905.91703782382
2005-09-25 23:42:48,$GPGGA,234248,3926.5029,N,11946.1984,W,2,12,0.8,1381.7,M,-22.0,M,,"*4D
",1943713.831771514,-256905.91703782382
2005-09-25 23:42:50,$GPGGA,234250,3926.5029,N,11946.1984,W,2,12,0.8,1382.1,M,-22.0,M,,"*41
",1943713.831771514,-256905.91703782382
2005-09-25 23:42:52,$GPGGA,234252,3926.5029,N,11946.1984,W,2,12,0.8,1382.3,M,-22.0,M,,"*41
",1943713.831771514,-256905.91703782382
2005-09-25 23:42:54,$GPGGA,234254,3926.5029,N,11946.1984,W,2,12,0.8,1382.6,M,-22.0,M,,"*42
",1943713.831771514,-256905.91703782382
2005-09-25 23:42:56,$GPGGA,234256,3926.5029,N,11946.1984,W,2,12,0.8,1382.7,M,-22.0,M,,"*41
",1943713.831771514,-256905.91703782382
2005-09-25 23:42:58,$GPGGA,234258,3926.5029,N,11946.1984,W,2,12,0.8,1382.7,M,-22.0,M,,"*4F
",1943713.831771514,-256905.91703782382
2005-09-25 23:43:00,$GPGGA,234300,3926.5029,N,11946.1984,W,2,12,0.8,1382.5,M,-22.0,M,,"*41
",1943713.831771514,-256905.91703782382
2005-09-25 23:43:02,$GPGGA,234302,3926.5029,N,11946.1984,W,2,12,0.8,1382.3,M,-22.0,M,,"*45
",1943713.831771514,-256905.91703782382
2005-09-25 23:43:04,$GPGGA,234304,3926.5029,N,11946.1984,W,2,12,0.8,1382.2,M,-22.0,M,,"*42
",1943713.831771514,-256905.91703782382
2005-09-25 23:43:06,$GPGGA,234306,3926.5029,N,11946.1984,W,2,12,0.8,1382.2,M,-22.0,M,,"*40
",1943713.831771514,-256905.91703782382
2005-09-25 23:43:08,$GPGGA,234308,3926.5029,N,11946.1984,W,2,12,0.8,1382.4,M,-22.0,M,,"*48
",1943713.831771514,-256905.91703782382
2005-09-25 23:43:10,$GPGGA,234310,3926.5029,N,11946.1984,W,2,12,0.8,1382.5,M,-22.0,M,,"*40
",1943713.831771514,-256905.91703782382
2005-09-25 23:43:12,$GPGGA,234312,3926.5029,N,11946.1984,W,2,12,0.8,1382.9,M,-22.0,M,,"*4E
",1943713.831771514,-256905.91703782382
2005-09-25 23:43:14,$GPGGA,234314,3926.5029,N,11946.1984,W,2,12,0.8,1383.2,M,-22.0,M,,"*42
",1943713.831771514,-256905.91703782382
2005-09-25 23:43:16,$GPGGA,234316,3926.5029,N,11946.1984,W,2,12,0.8,1383.6,M,-22.0,M,,"*44
",1943713.831771514,-256905.91703782382
2005-09-25 23:43:18,$GPGGA,234318,3926.5029,N,11946.1984,W,2,12,0.8,1384.2,M,-22.0,M,,"*49
",1943713.831771514,-256905.91703782382
2005-09-25 23:43:20,$GPGGA,234320,3926.5029,N,11946.1984,W,2,12,0.8,1384.8,M,-22.0,M,,"*48
",1943713.831771514,-256905.91703782382
2005-09-25 23:43:22,$GPGGA,234322,3926.5029,N,11946.1984,W,2,12,0.8,1385.2,M,-22.0,M,,"*41
",1943713.831771514,-256905.91703782382
2005-09-25 23:43:24,$GPGGA,234324,3926.5029,N,11946.1984,W,2,12,0.8,1385.4,M,-22.0,M,,"*41
",1943713.831771514,-256905.91703782382
2005-09-25 23:43:26,$GPGGA,234326,3926.5029,N,11946.1984,W,2,12,0.8,1385.3,M,-22.0,M,,"*44
",1943713.831771514,-256905.91703782382
2005-09-25 23:43:28,$GPGGA,234328,3926.5029,N,11946.1984,W,2,12,0.8,1385.3,M,-22.0,M,,"*4A
",1943713.831771514,-256905.91703782382
2005-09-25 23:43:30,$GPGGA,234330,3926.5029,N,11946.1984,W,2,12,0.8,1385.6,M,-22.0,M,,"*46
",1943713.831771514,-256905.91703782382
2005-09-25 23:43:32,$GPGGA,234332,3926.5029,N,11946.1984,W,2,12,0.8,1385.9,M,-22.0,M,,"*4B
",1943713.831771514,-256905.91703782382
2005-09-25 23:43:34,$GPGGA,234334,3926.5029,N,11946.1984,W,2,12,0.8,1386.1,M,-22.0,M,,"*46
",1943713.831771514,-256905.91703782382
2005-09-25 23:43:36,$GPGGA,234336,3926.5029,N,11946.1983,W,2,12,0.8,1386.7,M,-22.0,M,,"*45
",1943713.977016141,-256905.87884004886
2005-09-25 23:43:38,$GPGGA,234338,3926.5029,N,11946.1983,W,2,12,0.9,1387.2,M,-22.0,M,,"*4E
",1943713.977016141,-256905.87884004886
2005-09-25 23:43:40,$GPGGA,234340,3926.5029,N,11946.1983,W,2,12,1.0,1387.3,M,-22.0,M,,"*48
",1943713.977016141,-256905.87884004886
2005-09-25 23:43:42,$GPGGA,234342,3926.5029,N,11946.1983,W,2,12,0.9,1387.6,M,-22.0,M,,"*47
",1943713.977016141,-256905.87884004886
2005-09-25 23:43:44,$GPGGA,234344,3926.5028,N,11946.1983,W,2,11,0.9,1387.6,M,-22.0,M,,"*43
",1943714.0262797289,-256906.06615965327
2005-09-25 23:43:46,$GPGGA,234346,3926.5028,N,11946.1983,W,2,11,0.9,1387.5,M,-22.0,M,,"*42
",1943714.0262797289,-256906.06615965327
2005-09-25 23:43:48,$GPGGA,234348,3926.5028,N,11946.1983,W,2,11,0.9,1387.5,M,-22.0,M,,"*4C
",1943714.0262797289,-256906.06615965327
2005-09-25 23:43:50,$GPGGA,234350,3926.5028,N,11946.1983,W,2,11,0.9,1387.6,M,-22.0,M,,"*46
",1943714.0262797289,-256906.06615965327
2005-09-25 23:43:52,$GPGGA,234352,3926.5028,N,11946.1983,W,2,11,0.9,1387.9,M,-22.0,M,,"*4B
",1943714.0262797289,-256906.06615965327
2005-09-25 23:43:54,$GPGGA,234354,3926.5028,N,11946.1983,W,2,11,0.9,1387.9,M,-22.0,M,,"*4D
",1943714.0262797289,-256906.06615965327
2005-09-25 23:43:56,$GPGGA,234356,3926.5028,N,11946.1983,W,2,11,0.9,1387.9,M,-22.0,M,,"*4F
",1943714.0262797289,-256906.06615965327
2005-09-25 23:43:58,$GPGGA,234358,3926.5028,N,11946.1983,W,2,11,0.9,1388.1,M,-22.0,M,,"*46
",1943714.0262797289,-256906.06615965327
2005-09-25 23:44:00,$GPGGA,234400,3926.5028,N,11946.1983,W,2,12,0.9,1388.2,M,-22.0,M,,"*4C
",1943714.0262797289,-256906.06615965327
2005-09-25 23:44:02,$GPGGA,234402,3926.5028,N,11946.1983,W,2,12,0.9,1388.2,M,-22.0,M,,"*4E
",1943714.0262797289,-256906.06615965327
2005-09-25 23:44:04,$GPGGA,234404,3926.5028,N,11946.1983,W,2,12,0.9,1388.0,M,-22.0,M,,"*4A
",1943714.0262797289,-256906.06615965327
2005-09-25 23:44:06,$GPGGA,234406,3926.5028,N,11946.1982,W,2,12,0.9,1387.7,M,-22.0,M,,"*41
",1943714.1715243617,-256906.02796187488
2005-09-25 23:44:08,$GPGGA,234408,3926.5028,N,11946.1982,W,2,12,0.9,1387.3,M,-22.0,M,,"*4B
",1943714.1715243617,-256906.02796187488
2005-09-25 23:44:10,$GPGGA,234410,3926.5028,N,11946.1982,W,2,12,0.9,1387.3,M,-22.0,M,,"*42
",1943714.1715243617,-256906.02796187488
2005-09-25 23:44:12,$GPGGA,234412,3926.5028,N,11946.1982,W,2,12,0.9,1387.0,M,-22.0,M,,"*43
",1943714.1715243617,-256906.02796187488
2005-09-25 23:44:14,$GPGGA,234414,3926.5028,N,11946.1982,W,2,12,0.9,1386.9,M,-22.0,M,,"*4D
",1943714.1715243617,-256906.02796187488
2005-09-25 23:44:16,$GPGGA,234416,3926.5028,N,11946.1982,W,2,12,1.0,1386.8,M,-22.0,M,,"*46
",1943714.1715243617,-256906.02796187488
2005-09-25 23:44:18,$GPGGA,234418,3926.5028,N,11946.1982,W,2,12,0.9,1386.7,M,-22.0,M,,"*4F
",1943714.1715243617,-256906.02796187488
2005-09-25 23:44:20,$GPGGA,234420,3926.5028,N,11946.1982,W,2,11,1.0,1386.6,M,-22.0,M,,"*4E
",1943714.1715243617,-256906.02796187488
2005-09-25 23:44:22,$GPGGA,234422,3926.5028,N,11946.1982,W,2,12,0.9,1386.4,M,-22.0,M,,"*45
",1943714.1715243617,-256906.02796187488
2005-09-25 23:44:24,$GPGGA,234424,3926.5028,N,11946.1982,W,2,12,1.0,1386.0,M,-22.0,M,,"*4F
",1943714.1715243617,-256906.02796187488
2005-09-25 23:44:26,$GPGGA,234426,3926.5028,N,11946.1982,W,2,12,0.9,1385.8,M,-22.0,M,,"*4E
",1943714.1715243617,-256906.02796187488
2005-09-25 23:44:28,$GPGGA,234428,3926.5029,N,11946.1982,W,2,12,0.9,1385.8,M,-22.0,M,,"*41
",1943714.1222607698,-256905.8406422701
2005-09-25 23:44:30,$GPGGA,234430,3926.5029,N,11946.1982,W,2,12,0.9,1385.7,M,-22.0,M,,"*47
",1943714.1222607698,-256905.8406422701
2005-09-25 23:44:32,$GPGGA,234432,3926.5029,N,11946.1982,W,2,12,1.0,1385.5,M,-22.0,M,,"*4F
",1943714.1222607698,-256905.8406422701
2005-09-25 23:44:34,$GPGGA,234434,3926.5029,N,11946.1982,W,2,12,1.0,1385.3,M,-22.0,M,,"*4F
",1943714.1222607698,-256905.8406422701
2005-09-25 23:44:36,$GPGGA,234436,3926.5029,N,11946.1982,W,2,12,0.9,1385.3,M,-22.0,M,,"*45
",1943714.1222607698,-256905.8406422701
2005-09-25 23:44:38,$GPGGA,234438,3926.5029,N,11946.1982,W,2,12,0.9,1385.0,M,-22.0,M,,"*48
",1943714.1222607698,-256905.8406422701
2005-09-25 23:44:40,$GPGGA,234440,3926.5029,N,11946.1982,W,2,12,0.9,1384.9,M,-22.0,M,,"*4F
",1943714.1222607698,-256905.8406422701
2005-09-25 23:44:42,$GPGGA,234442,3926.5029,N,11946.1981,W,2,12,0.9,1385.3,M,-22.0,M,,"*45
",1943714.267505401,-256905.8024444876
2005-09-25 23:44:44,$GPGGA,234444,3926.5029,N,11946.1981,W,2,12,0.9,1385.5,M,-22.0,M,,"*45
",1943714.267505401,-256905.8024444876
2005-09-25 23:44:46,$GPGGA,234446,3926.5029,N,11946.1981,W,2,12,0.9,1386.0,M,-22.0,M,,"*41
",1943714.267505401,-256905.8024444876
2005-09-25 23:44:48,$GPGGA,234448,3926.5029,N,11946.1981,W,2,12,0.8,1386.2,M,-22.0,M,,"*4C
",1943714.267505401,-256905.8024444876
2005-09-25 23:44:50,$GPGGA,234450,3926.5029,N,11946.1981,W,2,12,0.8,1386.2,M,-22.0,M,,"*45
",1943714.267505401,-256905.8024444876
2005-09-25 23:44:52,$GPGGA,234452,3926.5029,N,11946.1981,W,2,12,0.8,1386.2,M,-22.0,M,,"*47
",1943714.267505401,-256905.8024444876
2005-09-25 23:44:54,$GPGGA,234454,3926.5029,N,11946.1981,W,2,12,0.8,1385.9,M,-22.0,M,,"*49
",1943714.267505401,-256905.8024444876
2005-09-25 23:44:56,$GPGGA,234456,3926.5029,N,11946.1981,W,2,12,0.8,1385.8,M,-22.0,M,,"*4A
",1943714.267505401,-256905.8024444876
2005-09-25 23:44:58,$GPGGA,234458,3926.5029,N,11946.1981,W,2,12,0.9,1385.5,M,-22.0,M,,"*48
",1943714.267505401,-256905.8024444876
2005-09-25 23:45:00,$GPGGA,234500,3926.5029,N,11946.1981,W,2,12,0.8,1385.1,M,-22.0,M,,"*41
",1943714.267505401,-256905.8024444876
2005-09-25 23:45:02,$GPGGA,234502,3926.5029,N,11946.1981,W,2,12,0.8,1384.7,M,-22.0,M,,"*44
",1943714.267505401,-256905.8024444876
2005-09-25 23:45:04,$GPGGA,234504,3926.5029,N,11946.1981,W,2,12,0.8,1384.4,M,-22.0,M,,"*41
",1943714.267505401,-256905.8024444876
2005-09-25 23:45:06,$GPGGA,234506,3926.5029,N,11946.1981,W,2,12,0.8,1384.2,M,-22.0,M,,"*45
",1943714.267505401,-256905.8024444876
2005-09-25 23:45:08,$GPGGA,234508,3926.5029,N,11946.1981,W,2,12,0.8,1384.2,M,-22.0,M,,"*4B
",1943714.267505401,-256905.8024444876
2005-09-25 23:45:10,$GPGGA,234510,3926.5029,N,11946.1981,W,2,12,0.8,1384.4,M,-22.0,M,,"*44
",1943714.267505401,-256905.8024444876
2005-09-25 23:45:12,$GPGGA,234512,3926.5029,N,11946.1981,W,2,12,0.8,1384.0,M,-22.0,M,,"*42
",1943714.267505401,-256905.8024444876
2005-09-25 23:45:14,$GPGGA,234514,3926.5029,N,11946.1981,W,2,12,0.8,1383.9,M,-22.0,M,,"*4A
",1943714.267505401,-256905.8024444876
2005-09-25 23:45:16,$GPGGA,234516,3926.5029,N,11946.1981,W,2,12,0.8,1384.0,M,-22.0,M,,"*46
",1943714.267505401,-256905.8024444876
2005-09-25 23:45:18,$GPGGA,234518,3926.5029,N,11946.1981,W,2,12,0.8,1384.1,M,-22.0,M,,"*49
",1943714.267505401,-256905.8024444876
2005-09-25 23:45:20,$GPGGA,234520,3926.5029,N,11946.1981,W,2,12,0.8,1384.0,M,-22.0,M,,"*43
",1943714.267505401,-256905.8024444876
2005-09-25 23:45:22,$GPGGA,234522,3926.5029,N,11946.1980,W,2,12,0.8,1383.8,M,-22.0,M,,"*4F
",1943714.4127500306,-256905.76424670254
2005-09-25 23:45:24,$GPGGA,234524,3926.5029,N,11946.1980,W,2,12,0.8,1383.7,M,-22.0,M,,"*46
",1943714.4127500306,-256905.76424670254
2005-09-25 23:45:26,$GPGGA,234526,3926.5029,N,11946.1980,W,2,12,0.8,1383.6,M,-22.0,M,,"*45
",1943714.4127500306,-256905.76424670254
2005-09-25 23:45:28,$GPGGA,234528,3926.5030,N,11946.1980,W,2,12,0.8,1383.7,M,-22.0,M,,"*42
",1943714.363486428,-256905.5769270953
2005-09-25 23:45:30,$GPGGA,234530,3926.5030,N,11946.1980,W,2,12,0.8,1383.9,M,-22.0,M,,"*45
",1943714.363486428,-256905.5769270953
2005-09-25 23:45:32,$GPGGA,234532,3926.5030,N,11946.1980,W,2,12,0.8,1384.5,M,-22.0,M,,"*4C
",1943714.363486428,-256905.5769270953
2005-09-25 23:45:34,$GPGGA,234534,3926.5030,N,11946.1980,W,2,12,0.8,1385.1,M,-22.0,M,,"*4F
",1943714.363486428,-256905.5769270953
2005-09-25 23:45:36,$GPGGA,234536,3926.5030,N,11946.1980,W,2,12,0.8,1386.0,M,-22.0,M,,"*4F
",1943714.363486428,-256905.5769270953
2005-09-25 23:45:38,$GPGGA,234538,3926.5030,N,11946.1980,W,2,12,0.8,1386.6,M,-22.0,M,,"*47
",1943714.363486428,-256905.5769270953
2005-09-25 23:45:40,$GPGGA,234540,3926.5030,N,11946.1980,W,2,12,0.8,1386.5,M,-22.0,M,,"*4B
",1943714.363486428,-256905.5769270953
2005-09-25 23:45:42,$GPGGA,234542,3926.5030,N,11946.1980,W,2,12,0.8,1386.0,M,-22.0,M,,"*4C
",1943714.363486428,-256905.5769270953
2005-09-25 23:45:44,$GPGGA,234544,3926.5030,N,11946.1980,W,2,12,0.8,1385.6,M,-22.0,M,,"*4F
",1943714.363486428,-256905.5769270953
2005-09-25 23:45:46,$GPGGA,234546,3926.5030,N,11946.1980,W,2,12,0.8,1385.5,M,-22.0,M,,"*4E
",1943714.363486428,-256905.5769270953
2005-09-25 23:45:48,$GPGGA,234548,3926.5030,N,11946.1980,W,2,12,0.8,1385.8,M,-22.0,M,,"*4D
",1943714.363486428,-256905.5769270953
2005-09-25 23:45:50,$GPGGA,234550,3926.5030,N,11946.1980,W,2,12,0.9,1385.6,M,-22.0,M,,"*4B
",1943714.363486428,-256905.5769270953
2005-09-25 23:45:52,$GPGGA,234552,3926.5030,N,11946.1980,W,2,12,0.9,1385.8,M,-22.0,M,,"*47
",1943714.363486428,-256905.5769270953
2005-09-25 23:45:54,$GPGGA,234554,3926.5030,N,11946.1980,W,2,12,0.8,1386.3,M,-22.0,M,,"*48
",1943714.363486428,-256905.5769270953
2005-09-25 23:45:56,$GPGGA,234556,3926.5030,N,11946.1980,W,2,12,0.8,1386.3,M,-22.0,M,,"*4A
",1943714.363486428,-256905.5769270953
2005-09-25 23:45:58,$GPGGA,234558,3926.5030,N,11946.1980,W,2,12,0.8,1386.5,M,-22.0,M,,"*42
",1943714.363486428,-256905.5769270953
2005-09-25 23:46:00,$GPGGA,234600,3926.5030,N,11946.1980,W,2,12,0.8,1386.2,M,-22.0,M,,"*4B
",1943714.363486428,-256905.5769270953
2005-09-25 23:46:02,$GPGGA,234602,3926.5030,N,11946.1980,W,2,12,0.8,1386.7,M,-22.0,M,,"*4C
",1943714.363486428,-256905.5769270953
2005-09-25 23:46:04,$GPGGA,234604,3926.5030,N,11946.1980,W,2,12,0.8,1386.4,M,-22.0,M,,"*49
",1943714.363486428,-256905.5769270953
2005-09-25 23:46:06,$GPGGA,234606,3926.5029,N,11946.1980,W,2,12,0.8,1386.1,M,-22.0,M,,"*46
",1943714.4127500306,-256905.76424670254
2005-09-25 23:46:08,$GPGGA,234608,3926.5029,N,11946.1980,W,2,12,0.8,1386.2,M,-22.0,M,,"*4B
",1943714.4127500306,-256905.76424670254
2005-09-25 23:46:10,$GPGGA,234610,3926.5029,N,11946.1980,W,2,12,0.8,1386.0,M,-22.0,M,,"*40
",1943714.4127500306,-256905.76424670254
2005-09-25 23:46:12,$GPGGA,234612,3926.5029,N,11946.1980,W,2,12,0.8,1385.8,M,-22.0,M,,"*49
",1943714.4127500306,-256905.76424670254
2005-09-25 23:46:14,$GPGGA,234614,3926.5029,N,11946.1980,W,2,12,0.9,1385.5,M,-22.0,M,,"*43
",1943714.4127500306,-256905.76424670254
2005-09-25 23:46:16,$GPGGA,234616,3926.5029,N,11946.1980,W,2,12,1.0,1385.2,M,-22.0,M,,"*4E
",1943714.4127500306,-256905.76424670254
2005-09-25 23:46:18,$GPGGA,234618,3926.5029,N,11946.1980,W,2,12,1.0,1384.7,M,-22.0,M,,"*44
",1943714.4127500306,-256905.76424670254
2005-09-25 23:46:20,$GPGGA,234620,3926.5029,N,11946.1980,W,2,12,1.1,1384.6,M,-22.0,M,,"*4F
",1943714.4127500306,-256905.76424670254
2005-09-25 23:46:22,$GPGGA,234622,3926.5029,N,11946.1980,W,2,12,1.0,1384.1,M,-22.0,M,,"*4B
",1943714.4127500306,-256905.76424670254
2005-09-25 23:46:24,$GPGGA,234624,3926.5029,N,11946.1980,W,2,12,1.0,1383.9,M,-22.0,M,,"*42
",1943714.4127500306,-256905.76424670254
2005-09-25 23:46:26,$GPGGA,234626,3926.5029,N,11946.1980,W,2,12,0.8,1383.6,M,-22.0,M,,"*46
",1943714.4127500306,-256905.76424670254
2005-09-25 23:46:28,$GPGGA,234628,3926.5029,N,11946.1980,W,2,12,0.8,1383.5,M,-22.0,M,,"*4B
",1943714.4127500306,-256905.76424670254
2005-09-25 23:46:30,$GPGGA,234630,3926.5029,N,11946.1980,W,2,12,0.8,1383.2,M,-22.0,M,,"*45
",1943714.4127500306,-256905.76424670254
2005-09-25 23:46:32,$GPGGA,234632,3926.5029,N,11946.1980,W,2,12,0.9,1382.9,M,-22.0,M,,"*4C
",1943714.4127500306,-256905.76424670254
2005-09-25 23:46:34,$GPGGA,234634,3926.5029,N,11946.1980,W,2,12,0.9,1383.0,M,-22.0,M,,"*42
",1943714.4127500306,-256905.76424670254
2005-09-25 23:46:36,$GPGGA,234636,3926.5029,N,11946.1980,W,2,12,0.9,1382.9,M,-22.0,M,,"*48
",1943714.4127500306,-256905.76424670254
2005-09-25 23:46:38,$GPGGA,234638,3926.5029,N,11946.1981,W,2,12,0.9,1382.5,M,-22.0,M,,"*4B
",1943714.267505401,-256905.8024444876
2005-09-25 23:46:40,$GPGGA,234640,3926.5029,N,11946.1981,W,2,12,0.9,1382.0,M,-22.0,M,,"*41
",1943714.267505401,-256905.8024444876
2005-09-25 23:46:42,$GPGGA,234642,3926.5029,N,11946.1981,W,2,12,0.8,1381.6,M,-22.0,M,,"*47
",1943714.267505401,-256905.8024444876
2005-09-25 23:46:44,$GPGGA,234644,3926.5029,N,11946.1981,W,2,12,0.8,1381.1,M,-22.0,M,,"*46
",1943714.267505401,-256905.8024444876
2005-09-25 23:46:46,$GPGGA,234646,3926.5028,N,11946.1981,W,2,12,0.8,1380.5,M,-22.0,M,,"*40
",1943714.316768997,-256905.98976409258
2005-09-25 23:46:48,$GPGGA,234648,3926.5028,N,11946.1981,W,2,12,0.9,1379.8,M,-22.0,M,,"*44
",1943714.316768997,-256905.98976409258
2005-09-25 23:46:50,$GPGGA,234650,3926.5028,N,11946.1981,W,2,12,0.8,1379.1,M,-22.0,M,,"*45
",1943714.316768997,-256905.98976409258
2005-09-25 23:46:52,$GPGGA,234652,3926.5028,N,11946.1981,W,2,12,0.8,1378.7,M,-22.0,M,,"*40
",1943714.316768997,-256905.98976409258
2005-09-25 23:46:54,$GPGGA,234654,3926.5028,N,11946.1981,W,2,12,0.8,1378.5,M,-22.0,M,,"*44
",1943714.316768997,-256905.98976409258
2005-09-25 23:46:56,$GPGGA,234656,3926.5028,N,11946.1981,W,2,12,0.8,1378.3,M,-22.0,M,,"*40
",1943714.316768997,-256905.98976409258
2005-09-25 23:46:58,$GPGGA,234658,3926.5028,N,11946.1981,W,2,12,0.8,1378.4,M,-22.0,M,,"*49
",1943714.316768997,-256905.98976409258
2005-09-25 23:47:00,$GPGGA,234700,3926.5028,N,11946.1981,W,2,12,0.8,1378.5,M,-22.0,M,,"*44
",1943714.316768997,-256905.98976409258
2005-09-25 23:47:02,$GPGGA,234702,3926.5028,N,11946.1981,W,2,12,0.8,1378.6,M,-22.0,M,,"*45
",1943714.316768997,-256905.98976409258
2005-09-25 23:47:04,$GPGGA,234704,3926.5028,N,11946.1981,W,2,12,0.8,1378.9,M,-22.0,M,,"*4C
",1943714.316768997,-256905.98976409258
2005-09-25 23:47:06,$GPGGA,234706,3926.5028,N,11946.1981,W,2,12,0.8,1379.0,M,-22.0,M,,"*46
",1943714.316768997,-256905.98976409258
2005-09-25 23:47:08,$GPGGA,234708,3926.5028,N,11946.1981,W,2,12,0.8,1379.1,M,-22.0,M,,"*49
",1943714.316768997,-256905.98976409258
2005-09-25 23:47:10,$GPGGA,234710,3926.5028,N,11946.1981,W,2,12,0.8,1379.2,M,-22.0,M,,"*43
",1943714.316768997,-256905.98976409258
2005-09-25 23:47:12,$GPGGA,234712,3926.5028,N,11946.1981,W,2,12,0.8,1379.3,M,-22.0,M,,"*40
",1943714.316768997,-256905.98976409258
2005-09-25 23:47:14,$GPGGA,234714,3926.5028,N,11946.1982,W,2,12,0.8,1379.6,M,-22.0,M,,"*40
",1943714.1715243617,-256906.02796187488
2005-09-25 23:47:16,$GPGGA,234716,3926.5028,N,11946.1982,W,2,12,0.9,1380.2,M,-22.0,M,,"*41
",1943714.1715243617,-256906.02796187488
2005-09-25 23:47:18,$GPGGA,234718,3926.5028,N,11946.1982,W,2,12,0.8,1380.5,M,-22.0,M,,"*49
",1943714.1715243617,-256906.02796187488
2005-09-25 23:47:20,$GPGGA,234720,3926.5028,N,11946.1982,W,2,12,0.8,1380.9,M,-22.0,M,,"*4E
",1943714.1715243617,-256906.02796187488
2005-09-25 23:47:22,$GPGGA,234722,3926.5028,N,11946.1982,W,2,12,0.8,1381.6,M,-22.0,M,,"*42
",1943714.1715243617,-256906.02796187488
2005-09-25 23:47:24,$GPGGA,234724,3926.5028,N,11946.1982,W,2,12,0.8,1382.1,M,-22.0,M,,"*40
",1943714.1715243617,-256906.02796187488
2005-09-25 23:47:26,$GPGGA,234726,3926.5028,N,11946.1982,W,2,12,0.8,1382.3,M,-22.0,M,,"*40
",1943714.1715243617,-256906.02796187488
2005-09-25 23:47:28,$GPGGA,234728,3926.5028,N,11946.1982,W,2,12,0.8,1382.8,M,-22.0,M,,"*45
",1943714.1715243617,-256906.02796187488
2005-09-25 23:47:30,$GPGGA,234730,3926.5028,N,11946.1982,W,2,12,0.8,1383.6,M,-22.0,M,,"*43
",1943714.1715243617,-256906.02796187488
2005-09-25 23:47:32,$GPGGA,234732,3926.5028,N,11946.1982,W,2,12,0.8,1384.5,M,-22.0,M,,"*45
",1943714.1715243617,-256906.02796187488
2005-09-25 23:47:34,$GPGGA,234734,3926.5027,N,11946.1982,W,2,12,0.8,1385.4,M,-22.0,M,,"*4C
",1943714.2207879527,-256906.2152814812
2005-09-25 23:47:36,$GPGGA,234736,3926.5027,N,11946.1982,W,2,12,0.8,1386.1,M,-22.0,M,,"*48
",1943714.2207879527,-256906.2152814812
2005-09-25 23:47:38,$GPGGA,234738,3926.5027,N,11946.1982,W,2,12,0.8,1386.4,M,-22.0,M,,"*43
",1943714.2207879527,-256906.2152814812
2005-09-25 23:47:40,$GPGGA,234740,3926.5027,N,11946.1982,W,2,12,0.8,1386.5,M,-22.0,M,,"*4D
",1943714.2207879527,-256906.2152814812
2005-09-25 23:47:42,$GPGGA,234742,3926.5027,N,11946.1982,W,2,12,0.8,1386.5,M,-22.0,M,,"*4F
",1943714.2207879527,-256906.2152814812
2005-09-25 23:47:44,$GPGGA,234744,3926.5027,N,11946.1982,W,2,12,0.8,1386.5,M,-22.0,M,,"*49
",1943714.2207879527,-256906.2152814812
2005-09-25 23:47:46,$GPGGA,234746,3926.5027,N,11946.1982,W,2,12,0.8,1386.5,M,-22.0,M,,"*4B
",1943714.2207879527,-256906.2152814812
2005-09-25 23:47:48,$GPGGA,234748,3926.5005,N,11946.1997,W,2,12,0.8,1386.5,M,-22.0,M,,"*41
",1943713.125915652,-256910.90927929035
2005-09-25 23:47:50,$GPGGA,234750,3926.5004,N,11946.1997,W,2,12,0.8,1386.7,M,-22.0,M,,"*4B
",1943713.175179145,-256911.09659891253
2005-09-25 23:47:52,$GPGGA,234752,3926.5004,N,11946.1996,W,2,12,0.8,1386.9,M,-22.0,M,,"*46
",1943713.3204238748,-256911.0584011852
2005-09-25 23:47:54,$GPGGA,234754,3926.5004,N,11946.1996,W,2,12,0.8,1387.0,M,-22.0,M,,"*48
",1943713.3204238748,-256911.0584011852
2005-09-25 23:47:56,$GPGGA,234756,3926.5005,N,11946.1995,W,2,12,0.8,1387.0,M,-22.0,M,,"*48
",1943713.416405102,-256910.83288383202
2005-09-25 23:47:58,$GPGGA,234758,3926.5005,N,11946.1995,W,2,12,0.8,1386.8,M,-22.0,M,,"*4F
",1943713.416405102,-256910.83288383202
2005-09-25 23:48:00,$GPGGA,234800,3926.5005,N,11946.1994,W,2,12,0.8,1386.7,M,-22.0,M,,"*43
",1943713.56164983,-256910.7946860975
2005-09-25 23:48:02,$GPGGA,234802,3926.5005,N,11946.1994,W,2,12,0.8,1386.7,M,-22.0,M,,"*41
",1943713.56164983,-256910.7946860975
2005-09-25 23:48:04,$GPGGA,234804,3926.5005,N,11946.1994,W,2,12,0.8,1386.7,M,-22.0,M,,"*47
",1943713.56164983,-256910.7946860975
2005-09-25 23:48:06,$GPGGA,234806,3926.5005,N,11946.1994,W,2,12,0.8,1386.5,M,-22.0,M,,"*47
",1943713.56164983,-256910.7946860975
2005-09-25 23:48:08,$GPGGA,234808,3926.5005,N,11946.1994,W,2,12,0.8,1386.1,M,-22.0,M,,"*4D
",1943713.56164983,-256910.7946860975
2005-09-25 23:48:10,$GPGGA,234810,3926.5005,N,11946.1995,W,2,12,0.8,1385.8,M,-22.0,M,,"*4F
",1943713.416405102,-256910.83288383202
2005-09-25 23:48:12,$GPGGA,234812,3926.5005,N,11946.1995,W,2,12,0.8,1385.4,M,-22.0,M,,"*41
",1943713.416405102,-256910.83288383202
2005-09-25 23:48:14,$GPGGA,234814,3926.5005,N,11946.1995,W,2,12,0.8,1385.0,M,-22.0,M,,"*43
",1943713.416405102,-256910.83288383202
2005-09-25 23:48:16,$GPGGA,234816,3926.5005,N,11946.1995,W,2,12,0.8,1384.6,M,-22.0,M,,"*46
",1943713.416405102,-256910.83288383202
2005-09-25 23:48:18,$GPGGA,234818,3926.5006,N,11946.1995,W,2,12,0.8,1384.5,M,-22.0,M,,"*48
",1943713.3671415986,-256910.64556421098
2005-09-25 23:48:20,$GPGGA,234820,3926.5006,N,11946.1995,W,2,12,0.8,1384.2,M,-22.0,M,,"*44
",1943713.3671415986,-256910.64556421098
2005-09-25 23:48:22,$GPGGA,234822,3926.5006,N,11946.1995,W,2,12,0.8,1383.9,M,-22.0,M,,"*4A
",1943713.3671415986,-256910.64556421098
2005-09-25 23:48:24,$GPGGA,234824,3926.5007,N,11946.1995,W,2,12,0.9,1383.8,M,-22.0,M,,"*4D
",1943713.3178780936,-256910.45824459082
2005-09-25 23:48:26,$GPGGA,234826,3926.5007,N,11946.1995,W,2,12,0.8,1383.9,M,-22.0,M,,"*4F
",1943713.3178780936,-256910.45824459082
2005-09-25 23:48:28,$GPGGA,234828,3926.5007,N,11946.1995,W,2,12,0.9,1383.8,M,-22.0,M,,"*41
",1943713.3178780936,-256910.45824459082
2005-09-25 23:48:30,$GPGGA,234830,3926.5007,N,11946.1995,W,2,12,0.9,1383.6,M,-22.0,M,,"*46
",1943713.3178780936,-256910.45824459082
2005-09-25 23:48:32,$GPGGA,234832,3926.5008,N,11946.1995,W,2,12,1.0,1383.5,M,-22.0,M,,"*40
",1943713.2686145874,-256910.27092497217
2005-09-25 23:48:34,$GPGGA,234834,3926.5008,N,11946.1995,W,2,12,1.1,1383.4,M,-22.0,M,,"*46
",1943713.2686145874,-256910.27092497217
2005-09-25 23:48:36,$GPGGA,234836,3926.5008,N,11946.1994,W,2,12,1.2,1383.3,M,-22.0,M,,"*41
",1943713.4138593026,-256910.23272723678
2005-09-25 23:48:38,$GPGGA,234838,3926.5009,N,11946.1994,W,2,12,1.6,1383.0,M,-22.0,M,,"*49
",1943713.3645957904,-256910.04540761665
2005-09-25 23:48:40,$GPGGA,234840,3926.5009,N,11946.1994,W,2,12,1.2,1383.0,M,-22.0,M,,"*42
",1943713.3645957904,-256910.04540761665
2005-09-25 23:48:42,$GPGGA,234842,3926.5009,N,11946.1994,W,2,12,1.2,1382.5,M,-22.0,M,,"*44
",1943713.3645957904,-256910.04540761665
2005-09-25 23:48:44,$GPGGA,234844,3926.5009,N,11946.1994,W,2,12,1.1,1381.7,M,-22.0,M,,"*40
",1943713.3645957904,-256910.04540761665
2005-09-25 23:48:46,$GPGGA,234846,3926.5009,N,11946.1994,W,2,11,1.2,1381.0,M,-22.0,M,,"*45
",1943713.3645957904,-256910.04540761665
2005-09-25 23:48:48,$GPGGA,234848,3926.5009,N,11946.1994,W,2,10,1.4,1381.1,M,-22.0,M,,"*4D
",1943713.3645957904,-256910.04540761665
2005-09-25 23:48:50,$GPGGA,234850,3926.5009,N,11946.1994,W,2,10,1.3,1380.9,M,-22.0,M,,"*4A
",1943713.3645957904,-256910.04540761665
2005-09-25 23:48:52,$GPGGA,234852,3926.5009,N,11946.1994,W,2,10,1.1,1380.8,M,-22.0,M,,"*4B
",1943713.3645957904,-256910.04540761665
2005-09-25 23:48:54,$GPGGA,234854,3926.5009,N,11946.1994,W,2,09,1.2,1380.5,M,-22.0,M,,"*4B
",1943713.3645957904,-256910.04540761665
2005-09-25 23:48:56,$GPGGA,234856,3926.5009,N,11946.1994,W,2,09,0.9,1380.2,M,-22.0,M,,"*44
",1943713.3645957904,-256910.04540761665
2005-09-25 23:48:58,$GPGGA,234858,3926.5008,N,11946.1994,W,1,09,0.9,1380.1,M,-22.0,M,,"*4B
",1943713.4138593026,-256910.23272723678
2005-09-25 23:49:00,$GPGGA,234900,3926.5008,N,11946.1994,W,1,09,0.9,1379.9,M,-22.0,M,,"*49
",1943713.4138593026,-256910.23272723678
2005-09-25 23:49:02,$GPGGA,234902,3926.5008,N,11946.1994,W,1,09,0.9,1379.6,M,-22.0,M,,"*44
",1943713.4138593026,-256910.23272723678
2005-09-25 23:49:04,$GPGGA,234904,3926.5008,N,11946.1994,W,1,09,0.9,1379.6,M,-22.0,M,,"*42
",1943713.4138593026,-256910.23272723678
2005-09-25 23:49:06,$GPGGA,234906,3926.5007,N,11946.1994,W,1,09,1.0,1379.8,M,-22.0,M,,"*49
",1943713.4631228135,-256910.42004685575
2005-09-25 23:49:08,$GPGGA,234908,3926.5007,N,11946.1994,W,1,09,1.1,1379.7,M,-22.0,M,,"*49
",1943713.4631228135,-256910.42004685575
2005-09-25 23:49:10,$GPGGA,234910,3926.5007,N,11946.1993,W,1,09,1.1,1379.5,M,-22.0,M,,"*45
",1943713.6083675309,-256910.38184911798
2005-09-25 23:49:12,$GPGGA,234912,3926.5007,N,11946.1993,W,1,09,0.9,1379.1,M,-22.0,M,,"*4A
",1943713.6083675309,-256910.38184911798
2005-09-25 23:49:14,$GPGGA,234914,3926.5007,N,11946.1993,W,1,09,0.9,1378.7,M,-22.0,M,,"*4B
",1943713.6083675309,-256910.38184911798
2005-09-25 23:49:16,$GPGGA,234916,3926.5006,N,11946.1993,W,1,09,1.0,1378.4,M,-22.0,M,,"*43
",1943713.657631044,-256910.56916873867
2005-09-25 23:49:18,$GPGGA,234918,3926.5006,N,11946.1993,W,1,09,1.2,1378.6,M,-22.0,M,,"*4D
",1943713.657631044,-256910.56916873867
2005-09-25 23:49:20,$GPGGA,234920,3926.5006,N,11946.1993,W,1,09,1.2,1379.2,M,-22.0,M,,"*43
",1943713.657631044,-256910.56916873867
2005-09-25 23:49:22,$GPGGA,234922,3926.5006,N,11946.1993,W,1,10,1.2,1379.7,M,-22.0,M,,"*4C
",1943713.657631044,-256910.56916873867
2005-09-25 23:49:24,$GPGGA,234924,3926.5006,N,11946.1992,W,1,10,1.2,1380.2,M,-22.0,M,,"*48
",1943713.8028757686,-256910.5309709974
2005-09-25 23:49:26,$GPGGA,234926,3926.5005,N,11946.1992,W,1,10,1.1,1380.4,M,-22.0,M,,"*4C
",1943713.8521392844,-256910.71829061923
2005-09-25 23:49:28,$GPGGA,234928,3926.5005,N,11946.1992,W,1,10,1.1,1380.6,M,-22.0,M,,"*40
",1943713.8521392844,-256910.71829061923
2005-09-25 23:49:30,$GPGGA,234930,3926.5005,N,11946.1992,W,1,10,1.2,1380.8,M,-22.0,M,,"*44
",1943713.8521392844,-256910.71829061923
2005-09-25 23:49:32,$GPGGA,234932,3926.5005,N,11946.1992,W,1,10,1.1,1381.2,M,-22.0,M,,"*4E
",1943713.8521392844,-256910.71829061923
2005-09-25 23:49:34,$GPGGA,234934,3926.5004,N,11946.1992,W,1,09,1.1,1381.0,M,-22.0,M,,"*43
",1943713.9014027982,-256910.90561024277
2005-09-25 23:49:36,$GPGGA,234936,3926.5004,N,11946.1992,W,1,11,0.9,1381.2,M,-22.0,M,,"*43
",1943713.9014027982,-256910.90561024277
2005-09-25 23:49:38,$GPGGA,234938,3926.5004,N,11946.1992,W,2,11,1.0,1381.6,M,-22.0,M,,"*42
",1943713.9014027982,-256910.90561024277
2005-09-25 23:49:40,$GPGGA,234940,3926.5003,N,11946.1992,W,2,11,1.0,1381.9,M,-22.0,M,,"*45
",1943713.950666311,-256911.09292986637
2005-09-25 23:49:42,$GPGGA,234942,3926.5003,N,11946.1992,W,2,11,1.0,1382.2,M,-22.0,M,,"*4F
",1943713.950666311,-256911.09292986637
2005-09-25 23:49:44,$GPGGA,234944,3926.5003,N,11946.1992,W,2,11,1.0,1382.2,M,-22.0,M,,"*49
",1943713.950666311,-256911.09292986637
2005-09-25 23:49:46,$GPGGA,234946,3926.5003,N,11946.1992,W,2,11,1.1,1382.4,M,-22.0,M,,"*4C
",1943713.950666311,-256911.09292986637
2005-09-25 23:49:48,$GPGGA,234948,3926.5002,N,11946.1993,W,2,11,1.1,1382.4,M,-22.0,M,,"*42
",1943713.8546850819,-256911.31844723027
2005-09-25 23:49:50,$GPGGA,234950,3926.5002,N,11946.1993,W,2,11,0.9,1382.1,M,-22.0,M,,"*47
",1943713.8546850819,-256911.31844723027
2005-09-25 23:49:52,$GPGGA,234952,3926.5002,N,11946.1993,W,2,11,1.0,1381.7,M,-22.0,M,,"*48
",1943713.8546850819,-256911.31844723027
2005-09-25 23:49:54,$GPGGA,234954,3926.5002,N,11946.1993,W,2,11,1.0,1381.2,M,-22.0,M,,"*4B
",1943713.8546850819,-256911.31844723027
2005-09-25 23:49:56,$GPGGA,234956,3926.5001,N,11946.1993,W,2,11,1.1,1380.9,M,-22.0,M,,"*41
",1943713.9039485874,-256911.50576685523
2005-09-25 23:49:58,$GPGGA,234958,3926.5001,N,11946.1993,W,2,11,1.3,1380.9,M,-22.0,M,,"*4D
",1943713.9039485874,-256911.50576685523
2005-09-25 23:50:00,$GPGGA,235000,3926.5001,N,11946.1993,W,2,10,1.5,1380.8,M,-22.0,M,,"*4E
",1943713.9039485874,-256911.50576685523
2005-09-25 23:50:02,$GPGGA,235002,3926.5001,N,11946.1993,W,2,11,1.7,1380.4,M,-22.0,M,,"*43
",1943713.9039485874,-256911.50576685523
2005-09-25 23:50:04,$GPGGA,235004,3926.4989,N,11946.1993,W,2,12,1.3,1380.9,M,-22.0,M,,"*47
",1943714.4951105358,-256913.7536024183
2005-09-25 23:50:06,$GPGGA,235006,3926.4989,N,11946.1993,W,2,12,1.3,1381.7,M,-22.0,M,,"*4A
",1943714.4951105358,-256913.7536024183
2005-09-25 23:50:08,$GPGGA,235008,3926.4988,N,11946.1993,W,2,12,1.4,1381.7,M,-22.0,M,,"*42
",1943714.5443740212,-256913.94092205446
2005-09-25 23:50:10,$GPGGA,235010,3926.4988,N,11946.1993,W,2,12,1.0,1381.7,M,-22.0,M,,"*4F
",1943714.5443740212,-256913.94092205446
2005-09-25 23:50:12,$GPGGA,235012,3926.4987,N,11946.1993,W,2,12,0.9,1381.6,M,-22.0,M,,"*4B
",1943714.5936375058,-256914.12824169078
2005-09-25 23:50:14,$GPGGA,235014,3926.4980,N,11946.1987,W,2,12,1.0,1381.6,M,-22.0,M,,"*47
",1943715.809950835,-256915.21029271383
2005-09-25 23:50:16,$GPGGA,235016,3926.4965,N,11946.1984,W,2,12,1.1,1381.6,M,-22.0,M,,"*4C
",1943716.9846378102,-256917.90549420257
2005-09-25 23:50:18,$GPGGA,235018,3926.4956,N,11946.1991,W,2,12,1.2,1381.5,M,-22.0,M,,"*46
",1943716.4112946168,-256919.8587553529
2005-09-25 23:50:20,$GPGGA,235020,3926.4954,N,11946.1993,W,2,12,1.0,1381.9,M,-22.0,M,,"*43
",1943716.2193316275,-256920.3097901387
2005-09-25 23:50:22,$GPGGA,235022,3926.4953,N,11946.1992,W,2,12,0.8,1382.2,M,-22.0,M,,"*46
",1943716.413840002,-256920.4589120743
2005-09-25 23:50:24,$GPGGA,235024,3926.4944,N,11946.2004,W,2,11,0.9,1382.4,M,-22.0,M,,"*47
",1943715.114271129,-256922.60316156864
2005-09-25 23:50:26,$GPGGA,235026,3926.4945,N,11946.2037,W,2,11,1.5,1382.3,M,-22.0,M,,"*4E
",1943710.2719237797,-256923.6763638621
2005-09-25 23:50:28,$GPGGA,235028,3926.4988,N,11946.2062,W,2,11,1.3,1382.3,M,-22.0,M,,"*47
",1943704.5224835158,-256916.57655811694
2005-09-25 23:50:30,$GPGGA,235030,3926.5049,N,11946.2082,W,2,11,1.3,1382.1,M,-22.0,M,,"*47
",1943698.6125348874,-256905.91401289235
2005-09-25 23:50:32,$GPGGA,235032,3926.5107,N,11946.2107,W,2,11,1.1,1381.7,M,-22.0,M,,"*45
",1943692.1241589691,-256896.00441560528
2005-09-25 23:50:34,$GPGGA,235034,3926.5150,N,11946.2132,W,2,12,0.9,1381.3,M,-22.0,M,,"*49
",1943686.3747375687,-256888.90461173005
2005-09-25 23:50:36,$GPGGA,235036,3926.5174,N,11946.2148,W,2,12,1.0,1381.0,M,-22.0,M,,"*4B
",1943682.8685173367,-256885.02010172204
2005-09-25 23:50:38,$GPGGA,235038,3926.5200,N,11946.2167,W,2,11,1.0,1380.5,M,-22.0,M,,"*4F
",1943678.8280415838,-256880.87554443532
2005-09-25 23:50:40,$GPGGA,235040,3926.5236,N,11946.2229,W,1,11,1.0,1379.9,M,-22.0,M,,"*45
",1943668.0494580076,-256876.50026877306
2005-09-25 23:50:42,$GPGGA,235042,3926.5245,N,11946.2326,W,1,12,1.6,1379.6,M,-22.0,M,,"*47
",1943653.5174552156,-256878.51949291842
2005-09-25 23:50:44,$GPGGA,235044,3926.5233,N,11946.2420,W,2,12,1.1,1379.3,M,-22.0,M,,"*40
",1943640.4556966263,-256884.3578038395
2005-09-25 23:50:46,$GPGGA,235046,3926.5219,N,11946.2513,W,2,11,1.1,1379.0,M,-22.0,M,,"*4B
",1943627.637697435,-256890.5325284863
2005-09-25 23:50:48,$GPGGA,235048,3926.5207,N,11946.2593,W,2,11,1.2,1378.7,M,-22.0,M,,"*47
",1943616.6093353806,-256895.83604026274
2005-09-25 23:50:50,$GPGGA,235050,3926.5191,N,11946.2655,W,2,11,1.0,1378.5,M,-22.0,M,,"*4B
",1943608.3923992394,-256901.20128680713
2005-09-25 23:50:52,$GPGGA,235052,3926.5177,N,11946.2694,W,2,11,1.1,1378.3,M,-22.0,M,,"*4B
",1943603.4175427596,-256905.31338556178
2005-09-25 23:50:54,$GPGGA,235054,3926.5173,N,11946.2706,W,2,11,1.0,1378.2,M,-22.0,M,,"*43
",1943601.8716596083,-256906.5210090058
2005-09-25 23:50:56,$GPGGA,235056,3926.5173,N,11946.2707,W,2,11,1.0,1378.1,M,-22.0,M,,"*43
",1943601.7264157224,-256906.5592045048
2005-09-25 23:50:58,$GPGGA,235058,3926.5172,N,11946.2708,W,2,11,1.0,1378.0,M,-22.0,M,,"*42
",1943601.6304326493,-256906.78471929938
2005-09-25 23:51:00,$GPGGA,235100,3926.5173,N,11946.2708,W,2,11,1.0,1378.1,M,-22.0,M,,"*4E
",1943601.5811718346,-256906.5974000011
2005-09-25 23:51:02,$GPGGA,235102,3926.5173,N,11946.2709,W,2,11,1.0,1377.8,M,-22.0,M,,"*4B
",1943601.435927951,-256906.63559549325
2005-09-25 23:51:04,$GPGGA,235104,3926.5172,N,11946.2709,W,2,11,0.9,1377.9,M,-22.0,M,,"*45
",1943601.485188762,-256906.82291479112
2005-09-25 23:51:06,$GPGGA,235106,3926.5172,N,11946.2709,W,2,12,0.8,1378.1,M,-22.0,M,,"*42
",1943601.485188762,-256906.82291479112
2005-09-25 23:51:08,$GPGGA,235108,3926.5172,N,11946.2710,W,2,12,0.9,1378.3,M,-22.0,M,,"*47
",1943601.339944868,-256906.86111028152
2005-09-25 23:51:10,$GPGGA,235110,3926.5172,N,11946.2710,W,2,12,1.2,1378.1,M,-22.0,M,,"*46
",1943601.339944868,-256906.86111028152
2005-09-25 23:51:12,$GPGGA,235112,3926.5172,N,11946.2710,W,2,12,1.2,1377.2,M,-22.0,M,,"*48
",1943601.339944868,-256906.86111028152
2005-09-25 23:51:14,$GPGGA,235114,3926.5172,N,11946.2710,W,2,11,1.8,1375.5,M,-22.0,M,,"*42
",1943601.339944868,-256906.86111028152
2005-09-25 23:51:16,$GPGGA,235116,3926.5169,N,11946.2739,W,2,11,1.9,1371.9,M,-22.0,M,,"*48
",1943597.2756541902,-256908.53073595653
2005-09-25 23:51:18,$GPGGA,235118,3926.5140,N,11946.2801,W,2,11,1.9,1368.6,M,-22.0,M,,"*4E
",1943589.6990846936,-256916.3311036152
2005-09-25 23:51:20,$GPGGA,235120,3926.5079,N,11946.2848,W,2,10,1.6,1370.4,M,-22.0,M,,"*46
",1943585.8774853311,-256929.55275198704
2005-09-25 23:51:22,$GPGGA,235122,3926.4991,N,11946.2843,W,2,06,2.4,1370.4,M,-22.0,M,,"*47
",1943590.9385907454,-256945.84588174723
2005-09-25 23:51:24,$GPGGA,235124,3926.4888,N,11946.2776,W,2,07,2.6,1371.2,M,-22.0,M,,"*45
",1943605.743778446,-256962.5807138656
2005-09-25 23:51:26,$GPGGA,235126,3926.4775,N,11946.2694,W,2,10,2.7,1371.4,M,-22.0,M,,"*46
",1943623.2202929133,-256980.61580879166
2005-09-25 23:51:28,$GPGGA,235128,3926.4647,N,11946.2603,W,2,12,1.6,1372.1,M,-22.0,M,,"*40
",1943642.7429867634,-257001.1169323883
2005-09-25 23:51:30,$GPGGA,235130,3926.4504,N,11946.2502,W,2,12,1.0,1372.2,M,-22.0,M,,"*4A
",1943664.4571295618,-257024.04588744824
2005-09-25 23:51:32,$GPGGA,235132,3926.4354,N,11946.2398,W,2,12,1.1,1372.2,M,-22.0,M,,"*4F
",1943686.9519303185,-257048.17148540032
2005-09-25 23:51:34,$GPGGA,235134,3926.4207,N,11946.2299,W,2,12,1.2,1372.2,M,-22.0,M,,"*4D
",1943708.5728047779,-257071.92609730852
2005-09-25 23:51:36,$GPGGA,235136,3926.4071,N,11946.2207,W,2,11,1.2,1372.2,M,-22.0,M,,"*48
",1943728.6351551905,-257093.88755708863
2005-09-25 23:51:38,$GPGGA,235138,3926.3959,N,11946.2131,W,2,11,1.2,1372.4,M,-22.0,M,,"*42
",1943745.1913247148,-257111.96447340993
2005-09-25 23:51:40,$GPGGA,235140,3926.3871,N,11946.2075,W,2,10,1.0,1372.5,M,-22.0,M,,"*45
",1943757.6602825779,-257126.30963732713
2005-09-25 23:51:42,$GPGGA,235142,3926.3810,N,11946.2036,W,2,10,1.1,1372.5,M,-22.0,M,,"*46
",1943766.3299637958,-257136.24649846787
2005-09-25 23:51:44,$GPGGA,235144,3926.3770,N,11946.2011,W,2,10,1.0,1372.7,M,-22.0,M,,"*4F
",1943771.9316683458,-257142.78438916826
2005-09-25 23:51:46,$GPGGA,235146,3926.3734,N,11946.1988,W,2,10,1.6,1372.6,M,-22.0,M,,"*40
",1943777.0458325085,-257148.6493919316
2005-09-25 23:51:48,$GPGGA,235148,3926.3704,N,11946.1968,W,2,10,2.3,1373.4,M,-22.0,M,,"*46
",1943781.4286815214,-257153.50506284417
2005-09-25 23:51:50,$GPGGA,235150,3926.3653,N,11946.1935,W,2,10,1.5,1373.5,M,-22.0,M,,"*40
",1943788.7342829255,-257161.79790041537
2005-09-25 23:51:52,$GPGGA,235152,3926.3576,N,11946.1885,W,2,10,1.5,1373.6,M,-22.0,M,,"*4F
",1943799.789960261,-257174.31171737716
2005-09-25 23:51:54,$GPGGA,235154,3926.3476,N,11946.1820,W,2,10,1.3,1373.8,M,-22.0,M,,"*4F
",1943814.1574493553,-257190.56094555388
2005-09-25 23:51:56,$GPGGA,235156,3926.3354,N,11946.1740,W,2,10,1.2,1374.1,M,-22.0,M,,"*4C
",1943831.787515328,-257210.3582624884
2005-09-25 23:51:58,$GPGGA,235158,3926.3215,N,11946.1652,W,2,08,1.5,1374.9,M,-22.0,M,,"*42
",1943851.4171147188,-257233.03444878673
2005-09-25 23:52:00,$GPGGA,235200,3926.3070,N,11946.1561,W,2,08,2.2,1375.8,M,-22.0,M,,"*4A
",1943871.7781195587,-257256.71996425051
2005-09-25 23:52:02,$GPGGA,235202,3926.2915,N,11946.1458,W,2,08,1.3,1376.2,M,-22.0,M,,"*43
",1943894.3748693226,-257281.8203049351
2005-09-25 23:52:04,$GPGGA,235204,3926.2748,N,11946.1349,W,2,08,1.3,1376.7,M,-22.0,M,,"*41
",1943918.4343938925,-257308.9393035208
2005-09-25 23:52:06,$GPGGA,235206,3926.2573,N,11946.1237,W,2,08,1.4,1377.2,M,-22.0,M,,"*42
",1943943.3238966141,-257337.44227183313
2005-09-25 23:52:08,$GPGGA,235208,3926.2393,N,11946.1120,W,2,10,1.4,1377.5,M,-22.0,M,,"*4F
",1943969.1861109233,-257366.6908455989
2005-09-25 23:52:10,$GPGGA,235210,3926.2210,N,11946.1000,W,2,10,0.9,1378.3,M,-22.0,M,,"*4A
",1943995.6320118106,-257396.3867786452
2005-09-25 23:52:12,$GPGGA,235212,3926.2027,N,11946.0879,W,2,10,0.8,1378.9,M,-22.0,M,,"*42
",1944022.2233030428,-257426.04450365758
2005-09-25 23:52:14,$GPGGA,235214,3926.1839,N,11946.0755,W,2,10,0.8,1379.4,M,-22.0,M,,"*4D
",1944049.4968219583,-257456.52423037688
2005-09-25 23:52:16,$GPGGA,235216,3926.1645,N,11946.0629,W,1,10,0.8,1379.6,M,-22.0,M,,"*41
",1944077.3565842758,-257488.05148235548
2005-09-25 23:52:18,$GPGGA,235218,3926.1446,N,11946.0499,W,1,10,0.8,1379.8,M,-22.0,M,,"*49
",1944106.0438542056,-257520.36253485148
2005-09-25 23:52:20,$GPGGA,235220,3926.1241,N,11946.0363,W,1,10,0.8,1379.9,M,-22.0,M,,"*40
",1944135.8984310904,-257553.56830558565
2005-09-25 23:52:22,$GPGGA,235222,3926.1030,N,11946.0224,W,1,10,0.9,1380.0,M,-22.0,M,,"*4A
",1944166.484550634,-257587.78339839223
2005-09-25 23:52:24,$GPGGA,235224,3926.0812,N,11946.0082,W,1,10,1.0,1379.9,M,-22.0,M,,"*4C
",1944197.8514904464,-257623.19513699782
2005-09-25 23:52:26,$GPGGA,235226,3926.0592,N,11945.9936,W,1,10,1.0,1380.0,M,-22.0,M,,"*48
",1944229.8982013208,-257658.82870053517
2005-09-25 23:52:28,$GPGGA,235228,3926.0372,N,11945.9792,W,1,10,1.1,1380.0,M,-22.0,M,,"*4F
",1944261.6545791898,-257694.5386589444
2005-09-25 23:52:30,$GPGGA,235230,3926.0150,N,11945.9647,W,1,10,0.8,1379.8,M,-22.1,M,,"*4A
",1944293.6549457114,-257730.58505106485
2005-09-25 23:52:32,$GPGGA,235232,3925.9926,N,11945.9501,W,1,10,0.8,1379.3,M,-22.1,M,,"*41
",1944325.8993052829,-257766.9678769772
2005-09-25 23:52:34,$GPGGA,235234,3925.9702,N,11945.9354,W,1,10,0.8,1378.6,M,-22.1,M,,"*4D
",1944358.2891297291,-257803.31248759344
2005-09-25 23:52:36,$GPGGA,235236,3925.9479,N,11945.9211,W,1,10,0.8,1378.0,M,-22.1,M,,"*46
",1944390.048814778,-257839.62258284353
2005-09-25 23:52:38,$GPGGA,235238,3925.9257,N,11945.9068,W,1,10,0.8,1377.5,M,-22.1,M,,"*44
",1944421.7594245125,-257875.7453445444
2005-09-25 23:52:40,$GPGGA,235240,3925.9035,N,11945.8925,W,1,10,0.8,1377.4,M,-22.1,M,,"*4D
",1944453.4702252331,-257911.86809729133
2005-09-25 23:52:42,$GPGGA,235242,3925.8815,N,11945.8782,W,1,10,0.8,1377.6,M,-22.1,M,,"*45
",1944485.0826823271,-257947.61619016711
2005-09-25 23:52:44,$GPGGA,235244,3925.8592,N,11945.8646,W,1,10,0.8,1378.2,M,-22.1,M,,"*43
",1944515.826228825,-257984.19369766442
2005-09-25 23:52:46,$GPGGA,235246,3925.8366,N,11945.8522,W,1,10,0.8,1379.0,M,-22.1,M,,"*4E
",1944544.9744825445,-258021.7916651651
2005-09-25 23:52:48,$GPGGA,235248,3925.8140,N,11945.8395,W,1,10,0.9,1380.1,M,-22.1,M,,"*4A
",1944574.5587141502,-258059.27501712044
2005-09-25 23:52:50,$GPGGA,235250,3925.7920,N,11945.8257,W,1,10,1.0,1381.0,M,-22.1,M,,"*45
",1944605.4455218255,-258095.21412995944
2005-09-25 23:52:52,$GPGGA,235252,3925.7701,N,11945.8113,W,1,10,1.1,1381.9,M,-22.1,M,,"*41
",1944637.1548958228,-258130.73666104415
2005-09-25 23:52:54,$GPGGA,235254,3925.7482,N,11945.7969,W,1,10,1.1,1382.5,M,-22.1,M,,"*4A
",1944668.864461147,-258166.25918109517
2005-09-25 23:52:56,$GPGGA,235256,3925.7261,N,11945.7824,W,1,10,1.1,1383.1,M,-22.1,M,,"*4E
",1944700.8180331115,-258202.1181350088
2005-09-25 23:52:58,$GPGGA,235258,3925.7039,N,11945.7679,W,1,10,1.2,1383.9,M,-22.1,M,,"*42
",1944732.8210684622,-258238.1644051268
2005-09-25 23:53:00,$GPGGA,235300,3925.6815,N,11945.7536,W,1,10,1.2,1384.6,M,-22.1,M,,"*49
",1944764.632278465,-258274.66173920594
2005-09-25 23:53:02,$GPGGA,235302,3925.6592,N,11945.7392,W,1,10,1.3,1385.1,M,-22.1,M,,"*46
",1944796.5396912012,-258310.93352736643
2005-09-25 23:53:04,$GPGGA,235304,3925.6370,N,11945.7248,W,1,10,1.0,1385.6,M,-22.1,M,,"*48
",1944828.398027408,-258347.01797839734
2005-09-25 23:53:06,$GPGGA,235306,3925.6148,N,11945.7103,W,1,10,1.0,1386.2,M,-22.1,M,,"*48
",1944860.401838772,-258383.06420865736
2005-09-25 23:53:08,$GPGGA,235308,3925.5926,N,11945.6959,W,1,10,1.0,1386.6,M,-22.1,M,,"*47
",1944892.2605616453,-258419.14863984298
2005-09-25 23:53:10,$GPGGA,235310,3925.5704,N,11945.6815,W,1,10,1.0,1387.0,M,-22.1,M,,"*4E
",1944924.1194773803,-258455.2330613131
2005-09-25 23:53:12,$GPGGA,235312,3925.5482,N,11945.6672,W,1,10,1.0,1387.2,M,-22.1,M,,"*4C
",1944955.8333008413,-258491.3556853272
2005-09-25 23:53:14,$GPGGA,235314,3925.5259,N,11945.6528,W,1,10,1.0,1387.5,M,-22.1,M,,"*41
",1944987.741872518,-258527.6274166953
2005-09-25 23:53:16,$GPGGA,235316,3925.5035,N,11945.6384,W,1,09,1.0,1387.8,M,-22.1,M,,"*4E
",1945019.6999089892,-258564.08646792916
2005-09-25 23:53:18,$GPGGA,235318,3925.4812,N,11945.6240,W,1,09,1.1,1388.0,M,-22.1,M,,"*43
",1945051.60886765,-258600.35818096696
2005-09-25 23:53:20,$GPGGA,235320,3925.4590,N,11945.6096,W,1,09,1.0,1388.3,M,-22.1,M,,"*44
",1945083.4687477371,-258636.44255515747
2005-09-25 23:53:22,$GPGGA,235322,3925.4369,N,11945.5951,W,1,09,1.0,1388.6,M,-22.1,M,,"*42
",1945115.4248383683,-258672.3013755816
2005-09-25 23:53:24,$GPGGA,235324,3925.4148,N,11945.5806,W,1,09,1.0,1388.7,M,-22.1,M,,"*47
",1945147.381123224,-258708.16018506492
2005-09-25 23:53:26,$GPGGA,235326,3925.3926,N,11945.5663,W,1,09,1.1,1388.7,M,-22.1,M,,"*4E
",1945179.096291481,-258744.28274399534
2005-09-25 23:53:28,$GPGGA,235328,3925.3703,N,11945.5519,W,1,09,1.1,1388.5,M,-22.1,M,,"*45
",1945211.0062163724,-258780.5544089986
2005-09-25 23:53:30,$GPGGA,235330,3925.3480,N,11945.5374,W,1,09,1.1,1388.3,M,-22.1,M,,"*4F
",1945243.0616282907,-258816.78784886358
2005-09-25 23:53:32,$GPGGA,235332,3925.3257,N,11945.5229,W,1,09,1.0,1388.0,M,-22.1,M,,"*4A
",1945275.1172354596,-258853.02127866654
2005-09-25 23:53:34,$GPGGA,235334,3925.3035,N,11945.5084,W,1,09,1.1,1387.7,M,-22.1,M,,"*46
",1945307.1237641564,-258889.06736730997
2005-09-25 23:53:36,$GPGGA,235336,3925.2813,N,11945.4939,W,1,09,1.1,1387.5,M,-22.1,M,,"*45
",1945339.1304875873,-258925.11344546065
2005-09-25 23:53:38,$GPGGA,235338,3925.2591,N,11945.4797,W,1,10,1.0,1387.2,M,-22.1,M,,"*48
",1945370.7015133803,-258961.2741656226
2005-09-25 23:53:40,$GPGGA,235340,3925.2371,N,11945.4656,W,1,10,1.0,1387.0,M,-22.1,M,,"*41
",1945402.028880859,-258997.0984320935
2005-09-25 23:53:42,$GPGGA,235342,3925.2168,N,11945.4523,W,1,10,1.0,1387.0,M,-22.1,M,,"*48
",1945431.3563697839,-259030.04379333192
2005-09-25 23:53:44,$GPGGA,235344,3925.1982,N,11945.4401,W,1,10,1.0,1387.1,M,-22.1,M,,"*41
",1945458.2480470554,-259060.22490393842
2005-09-25 23:53:46,$GPGGA,235346,3925.1815,N,11945.4293,W,1,10,1.2,1387.3,M,-22.1,M,,"*41
",1945482.169422738,-259087.38175800818
2005-09-25 23:53:48,$GPGGA,235348,3925.1685,N,11945.4207,W,1,10,1.5,1387.3,M,-22.1,M,,"*42
",1945501.071089947,-259108.4481284012
2005-09-25 23:53:50,$GPGGA,235350,3925.1587,N,11945.4129,W,1,10,1.6,1387.1,M,-22.1,M,,"*44
",1945517.233596161,-259123.82560857318
2005-09-25 23:53:52,$GPGGA,235352,3925.1510,N,11945.4071,W,1,10,1.7,1387.1,M,-22.1,M,,"*45
",1945529.4553219453,-259136.03348752335
2005-09-25 23:53:54,$GPGGA,235354,3925.1472,N,11945.4046,W,1,10,1.9,1386.6,M,-22.1,M,,"*4A
",1945534.9603487663,-259142.19663776417
2005-09-25 23:53:56,$GPGGA,235356,3925.1467,N,11945.4044,W,1,10,1.8,1386.6,M,-22.1,M,,"*4F
",1945535.4973313997,-259143.05686174158
2005-09-25 23:53:58,$GPGGA,235358,3925.1468,N,11945.4044,W,1,10,1.8,1386.5,M,-22.1,M,,"*4D
",1945535.4480557698,-259142.86952910188
2005-09-25 23:54:00,$GPGGA,235400,3925.1467,N,11945.4045,W,1,10,1.0,1386.6,M,-22.1,M,,"*42
",1945535.352029143,-259143.09508134957
2005-09-25 23:54:02,$GPGGA,235402,3925.1467,N,11945.4045,W,1,10,1.4,1386.8,M,-22.1,M,,"*4A
",1945535.352029143,-259143.09508134957
2005-09-25 23:54:04,$GPGGA,235404,3925.1467,N,11945.4046,W,1,10,1.2,1386.5,M,-22.1,M,,"*44
",1945535.20672689,-259143.13330095325
2005-09-25 23:54:06,$GPGGA,235406,3925.1467,N,11945.4046,W,1,10,1.4,1386.7,M,-22.1,M,,"*42
",1945535.20672689,-259143.13330095325
2005-09-25 23:54:08,$GPGGA,235408,3925.1466,N,11945.4046,W,1,10,1.4,1386.9,M,-22.1,M,,"*43
",1945535.2560025102,-259143.320633594
2005-09-25 23:54:10,$GPGGA,235410,3925.1465,N,11945.4047,W,1,10,1.0,1387.2,M,-22.1,M,,"*46
",1945535.1599758705,-259143.54618583494
2005-09-25 23:54:12,$GPGGA,235412,3925.1464,N,11945.4047,W,1,10,1.1,1387.6,M,-22.1,M,,"*40
",1945535.2092514834,-259143.73351847637
2005-09-25 23:54:14,$GPGGA,235414,3925.1463,N,11945.4047,W,1,09,1.1,1387.5,M,-22.1,M,,"*4A
",1945535.258527095,-259143.92085111796
2005-09-25 23:54:16,$GPGGA,235416,3925.1462,N,11945.4047,W,1,09,1.1,1388.2,M,-22.1,M,,"*41
",1945535.3078027044,-259144.108183761
2005-09-25 23:54:18,$GPGGA,235418,3925.1461,N,11945.4048,W,1,09,1.1,1388.8,M,-22.1,M,,"*49
",1945535.2117760337,-259144.33373600268
2005-09-25 23:54:20,$GPGGA,235420,3925.1460,N,11945.4048,W,1,10,1.1,1388.7,M,-22.1,M,,"*44
",1945535.2610516362,-259144.52106864672
2005-09-25 23:54:22,$GPGGA,235422,3925.1459,N,11945.4048,W,1,10,1.1,1389.1,M,-22.1,M,,"*4B
",1945535.3103272382,-259144.70840129288
2005-09-25 23:54:24,$GPGGA,235424,3925.1458,N,11945.4048,W,1,10,1.1,1389.2,M,-22.1,M,,"*4F
",1945535.3596028374,-259144.8957339378
2005-09-25 23:54:26,$GPGGA,235426,3925.1457,N,11945.4048,W,1,10,1.1,1389.4,M,-22.1,M,,"*44
",1945535.4088784358,-259145.08306658492
2005-09-25 23:54:28,$GPGGA,235428,3925.1456,N,11945.4048,W,1,10,1.0,1389.3,M,-22.1,M,,"*4D
",1945535.4581540322,-259145.2703992337
2005-09-25 23:54:30,$GPGGA,235430,3925.1455,N,11945.4048,W,1,10,1.1,1389.9,M,-22.1,M,,"*4C
",1945535.5074296275,-259145.4577318819
2005-09-25 23:54:32,$GPGGA,235432,3925.1396,N,11945.4022,W,1,10,1.3,1390.2,M,-22.1,M,,"*4B
",1945542.1925532967,-259155.51664949753
2005-09-25 23:54:34,$GPGGA,235434,3925.1332,N,11945.3981,W,1,10,1.3,1390.6,M,-22.1,M,,"*40
",1945551.3036049115,-259165.93893611105
2005-09-25 23:54:36,$GPGGA,235436,3925.1244,N,11945.3926,W,1,10,1.3,1390.8,M,-22.1,M,,"*41
",1945563.6315346942,-259180.32213149144
2005-09-25 23:54:38,$GPGGA,235438,3925.1134,N,11945.3855,W,1,09,1.8,1391.0,M,-22.1,M,,"*44
",1945579.3684205865,-259198.21512922077
2005-09-25 23:54:40,$GPGGA,235440,3925.1006,N,11945.3773,W,1,09,1.8,1391.3,M,-22.1,M,,"*43
",1945597.5906680264,-259219.0596963486
2005-09-25 23:54:42,$GPGGA,235442,3925.0855,N,11945.3674,W,1,10,1.8,1391.2,M,-22.1,M,,"*41
",1945619.4165128474,-259243.56317450386
2005-09-25 23:54:44,$GPGGA,235444,3925.0688,N,11945.3565,W,1,10,1.1,1391.4,M,-22.1,M,,"*45
",1945643.4839260874,-259270.68177260607
2005-09-25 23:54:46,$GPGGA,235446,3925.0514,N,11945.3453,W,1,11,1.2,1391.4,M,-22.1,M,,"*47
",1945668.3323045683,-259298.99703603904
2005-09-25 23:54:48,$GPGGA,235448,3925.0329,N,11945.3335,W,1,11,1.2,1391.6,M,-22.1,M,,"*44
",1945694.5946876016,-259329.1436358286
2005-09-25 23:54:50,$GPGGA,235450,3925.0134,N,11945.3209,W,1,11,1.2,1391.8,M,-22.1,M,,"*43
",1945722.5124349394,-259360.85779423112
2005-09-25 23:54:52,$GPGGA,235452,3924.9927,N,11945.3080,W,1,11,1.2,1391.8,M,-22.1,M,,"*40
",1945751.4575836677,-259394.70528828466
2005-09-25 23:54:54,$GPGGA,235454,3924.9710,N,11945.2950,W,1,11,1.2,1391.9,M,-22.1,M,,"*48
",1945781.0409751043,-259430.3878986095
2005-09-25 23:54:56,$GPGGA,235456,3924.9487,N,11945.2810,W,1,11,1.2,1392.1,M,-22.1,M,,"*49
",1945812.3733036679,-259466.8122849843
2005-09-25 23:54:58,$GPGGA,235458,3924.9262,N,11945.2665,W,1,11,1.2,1392.3,M,-22.1,M,,"*44
",1945844.5309320323,-259503.42021772536
2005-09-25 23:55:00,$GPGGA,235500,3924.9035,N,11945.2517,W,1,11,1.1,1392.6,M,-22.1,M,,"*48
",1945877.2232508843,-259540.28813980083
2005-09-25 23:55:02,$GPGGA,235502,3924.8806,N,11945.2368,W,1,10,1.3,1392.9,M,-22.1,M,,"*41
",1945910.159643341,-259577.49249736988
2005-09-25 23:55:04,$GPGGA,235504,3924.8578,N,11945.2221,W,1,10,1.4,1393.3,M,-22.1,M,,"*43
",1945942.756334016,-259614.5859582089
2005-09-25 23:55:06,$GPGGA,235506,3924.8356,N,11945.2078,W,1,10,1.4,1393.7,M,-22.1,M,,"*41
",1945974.4762903443,-259650.70829589773
2005-09-25 23:55:08,$GPGGA,235508,3924.8138,N,11945.1933,W,1,10,1.4,1393.8,M,-22.1,M,,"*4F
",1946006.2899535056,-259686.00483024053
2005-09-25 23:55:10,$GPGGA,235510,3924.7919,N,11945.1787,W,1,10,1.6,1393.9,M,-22.1,M,,"*40
",1946038.2984061697,-259721.45046262388
2005-09-25 23:55:12,$GPGGA,235512,3924.7698,N,11945.1638,W,1,10,1.8,1394.1,M,-22.1,M,,"*40
",1946070.8415683464,-259757.15607617903
2005-09-25 23:55:14,$GPGGA,235514,3924.7475,N,11945.1493,W,1,10,2.3,1394.2,M,-22.1,M,,"*4F
",1946102.9022153558,-259793.38925554164
2005-09-25 23:55:16,$GPGGA,235516,3924.7254,N,11945.1348,W,1,10,2.0,1394.4,M,-22.1,M,,"*4C
",1946134.8644969615,-259829.2477513987
2005-09-25 23:55:18,$GPGGA,235518,3924.7035,N,11945.1201,W,1,10,2.1,1394.4,M,-22.1,M,,"*4A
",1946167.019053884,-259864.6551073835
2005-09-25 23:55:20,$GPGGA,235520,3924.6816,N,11945.1053,W,1,10,1.9,1394.6,M,-22.1,M,,"*45
",1946199.319129759,-259900.02422205918
2005-09-25 23:55:22,$GPGGA,235522,3924.6596,N,11945.0909,W,1,10,1.9,1394.8,M,-22.1,M,,"*4B
",1946231.0873934678,-259935.73357339212
2005-09-25 23:55:24,$GPGGA,235524,3924.6375,N,11945.0767,W,1,10,1.9,1394.8,M,-22.1,M,,"*40
",1946262.6144824363,-259971.7067093706
2005-09-25 23:55:26,$GPGGA,235526,3924.6154,N,11945.0623,W,1,10,1.1,1395.0,M,-22.1,M,,"*43
",1946294.4324097242,-260007.6033786052
2005-09-25 23:55:28,$GPGGA,235528,3924.5934,N,11945.0477,W,1,10,1.1,1394.9,M,-22.1,M,,"*4B
",1946326.4918991008,-260043.2362406289
2005-09-25 23:55:30,$GPGGA,235530,3924.5712,N,11945.0336,W,1,11,1.1,1394.9,M,-22.1,M,,"*4B
",1946357.9235144232,-260079.43491691013
2005-09-25 23:55:32,$GPGGA,235532,3924.5490,N,11945.0196,W,2,11,1.7,1395.1,M,-22.1,M,,"*44
",1946389.2099891566,-260115.67181631344
2005-09-25 23:55:34,$GPGGA,235534,3924.5268,N,11945.0055,W,2,11,1.2,1395.3,M,-22.1,M,,"*4A
",1946420.6419777975,-260151.87047854764
2005-09-25 23:55:36,$GPGGA,235536,3924.5031,N,11944.9902,W,2,11,1.1,1395.5,M,-22.1,M,,"*40
",1946454.5573523473,-260190.42044375997
2005-09-25 23:55:38,$GPGGA,235538,3924.4786,N,11944.9748,W,2,11,1.1,1396.0,M,-22.1,M,,"*42
",1946489.012541033,-260230.4308804417
2005-09-25 23:55:40,$GPGGA,235540,3924.4547,N,11944.9604,W,2,09,1.1,1396.7,M,-22.1,M,,"*45
",1946521.7189364282,-260269.6995932957
2005-09-25 23:55:42,$GPGGA,235542,3924.4302,N,11944.9484,W,2,09,1.2,1399.3,M,-22.1,M,,"*42
",1946551.2332477279,-260311.0099183045
2005-09-25 23:55:44,$GPGGA,235544,3924.4074,N,11944.9364,W,2,10,1.5,1400.1,M,-22.1,M,,"*45
",1946579.9098912687,-260349.13548372526
2005-09-25 23:55:46,$GPGGA,235546,3924.3852,N,11944.9228,W,2,10,1.0,1400.7,M,-22.1,M,,"*46
",1946610.6163363527,-260385.52529149255
2005-09-25 23:55:48,$GPGGA,235548,3924.3631,N,11944.9087,W,2,11,1.1,1401.1,M,-22.1,M,,"*43
",1946642.0003531617,-260421.5365886689
2005-09-25 23:55:50,$GPGGA,235550,3924.3408,N,11944.8944,W,2,11,1.1,1401.5,M,-22.1,M,,"*41
",1946673.773798454,-260457.8460916277
2005-09-25 23:55:52,$GPGGA,235552,3924.3186,N,11944.8800,W,1,11,1.1,1402.0,M,-22.1,M,,"*44
",1946705.6434880723,-260493.93001132857
2005-09-25 23:55:54,$GPGGA,235554,3924.2965,N,11944.8655,W,1,10,1.0,1402.3,M,-22.1,M,,"*4B
",1946737.6094240882,-260529.78834591727
2005-09-25 23:55:56,$GPGGA,235556,3924.2745,N,11944.8510,W,1,10,0.9,1402.7,M,-22.1,M,,"*4B
",1946769.526269148,-260565.45932853737
2005-09-25 23:55:58,$GPGGA,235558,3924.2525,N,11944.8366,W,1,10,0.8,1403.1,M,-22.1,M,,"*40
",1946801.2979675098,-260601.168535328
2005-09-25 23:56:00,$GPGGA,235600,3924.2309,N,11944.8224,W,1,10,0.9,1403.0,M,-22.1,M,,"*41
",1946832.582032525,-260636.20483698053
2005-09-25 23:56:02,$GPGGA,235602,3924.2129,N,11944.8106,W,1,09,0.9,1403.4,M,-22.1,M,,"*4C
",1946858.6037814391,-260665.4144923474
2005-09-25 23:56:04,$GPGGA,235604,3924.1974,N,11944.8009,W,1,09,1.0,1403.4,M,-22.1,M,,"*4F
",1946880.3413103472,-260690.7435578138
2005-09-25 23:56:06,$GPGGA,235606,3924.1841,N,11944.7943,W,1,09,1.1,1403.2,M,-22.1,M,,"*45
",1946896.4889912608,-260713.13643114056
2005-09-25 23:56:08,$GPGGA,235608,3924.1721,N,11944.7940,W,1,09,1.2,1402.9,M,-22.1,M,,"*48
",1946902.8393416498,-260735.50277133597
2005-09-25 23:56:10,$GPGGA,235610,3924.1619,N,11944.8013,W,1,09,1.5,1403.7,M,-22.1,M,,"*43
",1946897.256372879,-260757.40293155515
2005-09-25 23:56:12,$GPGGA,235612,3924.1556,N,11944.8144,W,1,09,1.3,1404.3,M,-22.1,M,,"*4F
",1946881.321236783,-260774.21441733604
2005-09-25 23:56:14,$GPGGA,235614,3924.1495,N,11944.8280,W,1,09,1.1,1404.9,M,-22.1,M,,"*44
",1946864.5607386103,-260790.84233962386
2005-09-25 23:56:16,$GPGGA,235616,3924.1430,N,11944.8413,W,1,09,1.1,1405.6,M,-22.1,M,,"*4B
",1946848.4333386743,-260808.10486531505
2005-09-25 23:56:18,$GPGGA,235618,3924.1358,N,11944.8558,W,1,09,1.0,1406.4,M,-22.1,M,,"*42
",1946830.9067031464,-260827.13754306038
2005-09-25 23:56:20,$GPGGA,235620,3924.1281,N,11944.8716,W,1,09,1.0,1407.4,M,-22.1,M,,"*45
",1946811.7368980374,-260847.60390526327
2005-09-25 23:56:22,$GPGGA,235622,3924.1197,N,11944.8884,W,1,09,1.1,1408.4,M,-22.1,M,,"*49
